{
  "capitals": [
    {
      "name": "Alabama",
      "lat": "32.361538",
      "long": "-86.279118",
      "pop": "4903185"
    },
    {
      "name": "Alaska",
      "lat": "58.301935",
      "long": "-134.41974",
      "pop": "731545"
    },
    {
      "name": "Arizona",
      "lat": "33.448143",
      "long": "-112.096962",
      "pop": "7278717"
    },
    {
      "name": "Arkansas",
      "lat": "34.746613",
      "long": "-92.288986",
      "pop": "3017804"
    },
    {
      "name": "California",
      "lat": "38.576668",
      "long": "-121.493629",
      "pop": "39512223"
    },
    {
      "name": "Colorado",
      "lat": "39.739227",
      "long": "-104.984856",
      "pop": "5758736"
    },
    {
      "name": "Connecticut",
      "lat": "41.764046",
      "long": "-72.682198",
      "pop": "3565287"
    },
    {
      "name": "Delaware",
      "lat": "39.157307",
      "long": "-75.519722",
      "pop": "973764"
    },
    {
      "name": "Florida",
      "lat": "30.438118",
      "long": "-84.281296",
      "pop": "21477737"
    },
    {
      "name": "Georgia",
      "lat": "33.749027",
      "long": "-84.388229",
      "pop": "10617423"
    },
    {
      "name": "Hawaii",
      "lat": "21.307442",
      "long": "-157.857376",
      "pop": "1415872"
    },
    {
      "name": "Idaho",
      "lat": "43.617775",
      "long": "-116.199722",
      "pop": "1787065"
    },
    {
      "name": "Illinois",
      "lat": "39.798363",
      "long": "-89.654961",
      "pop": "12671821"
    },
    {
      "name": "Indiana",
      "lat": "39.768623",
      "long": "-86.162643",
      "pop": "6732219"
    },
    {
      "name": "Iowa",
      "lat": "41.591087",
      "long": "-93.603729",
      "pop": "3155070"
    },
    {
      "name": "Kansas",
      "lat": "39.048191",
      "long": "-95.677956",
      "pop": "2913314"
    },
    {
      "name": "Kentucky",
      "lat": "38.186722",
      "long": "-84.875374",
      "pop": "4467673"
    },
    {
      "name": "Louisiana",
      "lat": "30.457069",
      "long": "-91.187393",
      "pop": "4648794"
    },
    {
      "name": "Maine",
      "lat": "44.307167",
      "long": "-69.781693",
      "pop": "1344212"
    },
    {
      "name": "Maryland",
      "lat": "38.978764",
      "long": "-76.490936",
      "pop": "6045680"
    },
    {
      "name": "Massachusetts",
      "lat": "42.358162",
      "long": "-71.063698",
      "pop": "6892503"
    },
    {
      "name": "Michigan",
      "lat": "42.733635",
      "long": "-84.555328",
      "pop": "9986857"
    },
    {
      "name": "Minnesota",
      "lat": "44.955097",
      "long": "-93.102211",
      "pop": "5639632"
    },
    {
      "name": "Mississippi",
      "lat": "32.303848",
      "long": "-90.182106",
      "pop": "2976149"
    },
    {
      "name": "Missouri",
      "lat": "38.579201",
      "long": "-92.172935",
      "pop": "6137428"
    },
    {
      "name": "Montana",
      "lat": "46.585709",
      "long": "-112.018417",
      "pop": "1068778"
    },
    {
      "name": "Nebraska",
      "lat": "40.808075",
      "long": "-96.699654",
      "pop": "1934408"
    },
    {
      "name": "Nevada",
      "lat": "39.163914",
      "long": "-119.766121",
      "pop": "3080156"
    },
    {
      "name": "New Hampshire",
      "lat": "43.206898",
      "long": "-71.537994",
      "pop": "1359711"
    },
    {
      "name": "New Jersey",
      "lat": "40.220596",
      "long": "-74.769913",
      "pop": "8882190"
    },
    {
      "name": "New Mexico",
      "lat": "35.68224",
      "long": "-105.939728",
      "pop": "2096829"
    },
    {
      "name": "New York",
      "lat": "42.652843",
      "long": "-73.757874",
      "pop": "19453561"
    },
    {
      "name": "North Carolina",
      "lat": "35.78043",
      "long": "-78.639099",
      "pop": "10488084"
    },
    {
      "name": "North Dakota",
      "lat": "46.82085",
      "long": "-100.783318",
      "pop": "762062"
    },
    {
      "name": "Ohio",
      "lat": "39.961346",
      "long": "-82.999069",
      "pop": "11689100"
    },
    {
      "name": "Oklahoma",
      "lat": "35.492207",
      "long": "-97.503342",
      "pop": "3956971"
    },
    {
      "name": "Oregon",
      "lat": "44.938461",
      "long": "-123.030403",
      "pop": "4217737"
    },
    {
      "name": "Pennsylvania",
      "lat": "40.264378",
      "long": "-76.883598",
      "pop": "12801989"
    },
    {
      "name": "Rhode Island",
      "lat": "41.830914",
      "long": "-71.414963",
      "pop": "1059361"
    },
    {
      "name": "South Carolina",
      "lat": "34.000343",
      "long": "-81.033211",
      "pop": "5148714"
    },
    {
      "name": "South Dakota",
      "lat": "44.367031",
      "long": "-100.346405",
      "pop": "884659"
    },
    {
      "name": "Tennessee",
      "lat": "36.16581",
      "long": "-86.784241",
      "pop": "6829174"
    },
    {
      "name": "Texas",
      "lat": "30.27467",
      "long": "-97.740349",
      "pop": "28995881"
    },
    {
      "name": "Utah",
      "lat": "40.777477",
      "long": "-111.888237",
      "pop": "3205958"
    },
    {
      "name": "Vermont",
      "lat": "44.262436",
      "long": "-72.580536",
      "pop": "623989"
    },
    {
      "name": "Virginia",
      "lat": "37.538857",
      "long": "-77.43364",
      "pop": "8535519"
    },
    {
      "name": "Washington",
      "lat": "47.035805",
      "long": "-122.905014",
      "pop": "7614893"
    },
    {
      "name": "West Virginia",
      "lat": "38.336246",
      "long": "-81.612328",
      "pop": "1792147"
    },
    {
      "name": "Wisconsin",
      "lat": "43.074684",
      "long": "-89.384445",
      "pop": "5822434"
    },
    {
      "name": "Wyoming",
      "lat": "41.140259",
      "long": "-104.820236",
      "pop": "578759"
    }
  ]
}
